{"business_id":"CU047MuCn7u-9UGA2-xhmA","name":"Carnegie Museum of Art","address":"4400 Forbes Ave","city":"Pittsburgh","state":"PA","postal_code":"15213","latitude":40.4432834,"longitude":-79.9502225,"stars":4.0,"review_count":55,"is_open":1,"attributes":{"GoodForKids":"True","RestaurantsPriceRange2":"2","BikeParking":"True","BusinessParking":"{'garage': True, 'street': True, 'validated': False, 'lot': False, 'valet': False}","BusinessAcceptsCreditCards":"True","ByAppointmentOnly":"False"},"categories":"Art Galleries, Shopping, Arts & Entertainment, Museums, Art Museums","hours":{"Monday":"10:0-17:0","Wednesday":"10:0-17:0","Thursday":"10:0-20:0","Friday":"10:0-17:0","Saturday":"10:0-17:0","Sunday":"12:0-17:0"}}
{"business_id":"sn19SpNpjZ8BsZiXOqsAAA","name":"Top Notch Art Supply","address":"411 S Craig St","city":"Pittsburgh","state":"PA","postal_code":"15213","latitude":40.4448537,"longitude":-79.9483194,"stars":3.0,"review_count":9,"is_open":1,"attributes":{"RestaurantsPriceRange2":"2","BusinessParking":"{'garage': False, 'street': True, 'validated': False, 'lot': False, 'valet': False}","BusinessAcceptsCreditCards":"True","BikeParking":"True"},"categories":"Arts & Crafts, Art Supplies, Shopping","hours":{"Monday":"10:0-19:0","Tuesday":"10:0-19:0","Wednesday":"10:0-19:0","Thursday":"10:0-19:0","Friday":"10:0-19:0","Saturday":"10:0-17:0","Sunday":"13:0-17:0"}}
{"business_id":"O-fYUqXjkwNvRfFnlUH6Iw","name":"Insomnia Cookies","address":"115 Meyran Ave","city":"Pittsburgh","state":"PA","postal_code":"15213","latitude":40.4409588,"longitude":-79.9586082,"stars":3.0,"review_count":18,"is_open":1,"attributes":{"BikeParking":"True","BusinessAcceptsCreditCards":"True","WiFi":"'no'","RestaurantsTakeOut":"True","BusinessParking":"{'garage': False, 'street': False, 'validated': False, 'lot': False, 'valet': False}"},"categories":"Bakeries, Event Planning & Services, Caterers, Desserts, Ice Cream & Frozen Yogurt, Food","hours":{"Monday":"9:0-3:0","Tuesday":"9:0-3:0","Wednesday":"9:0-3:0","Thursday":"9:0-3:0","Friday":"9:0-3:0","Saturday":"11:0-3:0","Sunday":"11:0-3:0"}}
{"business_id":"GiTv0gFXtYFQAzCXnPvepQ","name":"Chili's","address":"5521 Westpark Dr","city":"Charlotte","state":"NC","postal_code":"28217","latitude":35.1621387,"longitude":-80.8868514,"stars":2.5,"review_count":48,"is_open":1,"attributes":{"WiFi":"u'no'","Alcohol":"'full_bar'","Corkage":"False","RestaurantsAttire":"u'casual'","OutdoorSeating":"False","NoiseLevel":"u'very_loud'","HasTV":"True","Ambience":"{'romantic': False, 'intimate': False, 'classy': False, 'hipster': False, 'divey': False, 'touristy': False, 'trendy': False, 'upscale': False, 'casual': False}","GoodForKids":"True","HappyHour":"True","BYOBCorkage":"'yes_free'","RestaurantsTableService":"True","RestaurantsTakeOut":"True","RestaurantsPriceRange2":"2","BusinessAcceptsCreditCards":"True","BusinessParking":"{'garage': False, 'street': False, 'validated': False, 'lot': True, 'valet': False}","RestaurantsDelivery":"False","BikeParking":"False","RestaurantsReservations":"False","BYOB":"False","WheelchairAccessible":"True","GoodForDancing":"False","RestaurantsGoodForGroups":"True","Music":"{'dj': False, 'background_music': False, 'no_music': False, 'jukebox': False, 'live': False, 'video': False, 'karaoke': False}","Caters":"False","GoodForMeal":"{'dessert': False, 'latenight': False, 'lunch': True, 'dinner': True, 'brunch': False, 'breakfast': False}","CoatCheck":"False"},"categories":"Restaurants, American (Traditional), American (New), Tex-Mex, Bars, Nightlife","hours":{"Monday":"11:0-23:0","Tuesday":"11:0-23:0","Wednesday":"11:0-23:0","Thursday":"11:0-23:0","Friday":"11:0-0:0","Saturday":"11:0-0:0","Sunday":"11:0-23:0"}}
{"business_id":"NCac2iPhlIeWRgG5L4hCzg","name":"Next Level Carpet & Tile Cleaning","address":"12495 NW Grand Ave","city":"Phoenix","state":"AZ","postal_code":"85335","latitude":33.4149064,"longitude":-111.7592241,"stars":4.0,"review_count":3,"is_open":1,"attributes":{"BusinessAcceptsCreditCards":"True"},"categories":"Home Services, Carpet Cleaning, Local Services, Tiling, Refinishing Services","hours":{"Monday":"8:0-19:0","Tuesday":"8:0-19:0","Wednesday":"8:0-19:0","Thursday":"8:0-19:0","Friday":"8:0-19:0","Saturday":"8:0-19:0"}}
{"business_id":"9ffhtZhp7RclEJM0OHnGPA","name":"Anthem Blue Cross and Blue Shield","address":"","city":"Las Vegas","state":"NV","postal_code":"89148","latitude":36.0825323825,"longitude":-115.2910169168,"stars":1.0,"review_count":12,"is_open":1,"attributes":null,"categories":"Health & Medical, Financial Services, Health Insurance Offices, Insurance","hours":null}
{"business_id":"tylsscXmLq03-DzGI36bIA","name":"Squaw Peak Cafe","address":"2333 E Thomas Rd","city":"Phoenix","state":"AZ","postal_code":"85016","latitude":33.4791900432,"longitude":-112.0314878225,"stars":3.5,"review_count":8,"is_open":1,"attributes":{"RestaurantsDelivery":"True","GoodForKids":"True","HasTV":"True","Ambience":"{'touristy': False, 'hipster': False, 'romantic': False, 'divey': False, 'intimate': False, 'trendy': False, 'upscale': False, 'classy': False, 'casual': False}","GoodForMeal":"{'dessert': False, 'latenight': False, 'lunch': False, 'dinner': False, 'brunch': False, 'breakfast': False}","RestaurantsGoodForGroups":"True","OutdoorSeating":"True","RestaurantsTakeOut":"True","RestaurantsReservations":"True","BusinessAcceptsCreditCards":"True","BikeParking":"False","Alcohol":"'full_bar'","RestaurantsPriceRange2":"2","RestaurantsAttire":"'casual'"},"categories":"Restaurants, Sandwiches, Salad, Pizza","hours":null}
{"business_id":"Q8AutZN3WoZb69D9bsCGUw","name":"Mickey's Hangover","address":"4310 N Brown Ave","city":"Scottsdale","state":"AZ","postal_code":"85251","latitude":33.4986931,"longitude":-111.9244141,"stars":3.5,"review_count":46,"is_open":0,"attributes":{"OutdoorSeating":"True","BusinessParking":"{'garage': False, 'street': True, 'validated': False, 'lot': True, 'valet': False}","RestaurantsGoodForGroups":"True","Alcohol":"'full_bar'","BusinessAcceptsCreditCards":"True","RestaurantsPriceRange2":"1"},"categories":"Nightlife, Dive Bars, Bars","hours":null}
{"business_id":"aVdW5rDFDCCTwBiS2-AI1w","name":"Peoria Autobody And Collision","address":"7961 W Gold Dust Ave","city":"Peoria","state":"AZ","postal_code":"85345","latitude":33.576108,"longitude":-112.2300421,"stars":1.0,"review_count":5,"is_open":1,"attributes":null,"categories":"Body Shops, Automotive","hours":{"Monday":"9:0-17:0","Tuesday":"9:0-17:0","Wednesday":"9:0-17:0","Thursday":"9:0-17:0","Friday":"9:0-17:0","Saturday":"10:0-14:0"}}
{"business_id":"O-fYUqXjkwNvRfFnlUH6Iw","name":"Insomnia Cookies","address":"115 Meyran Ave","city":"Pittsburgh","state":"PA","postal_code":"15213","latitude":40.4409588,"longitude":-79.9586082,"stars":3.0,"review_count":18,"is_open":1,"attributes":{"BikeParking":"True","BusinessAcceptsCreditCards":"True","WiFi":"'no'","RestaurantsTakeOut":"True","BusinessParking":"{'garage': False, 'street': False, 'validated': False, 'lot': False, 'valet': False}"},"categories":"Bakeries, Event Planning & Services, Caterers, Desserts, Ice Cream & Frozen Yogurt, Food","hours":{"Monday":"9:0-3:0","Tuesday":"9:0-3:0","Wednesday":"9:0-3:0","Thursday":"9:0-3:0","Friday":"9:0-3:0","Saturday":"11:0-3:0","Sunday":"11:0-3:0"}}
{"business_id":"x5mv33siyWGXVpOmLACfPQ","name":"Brook Park Laser Wash","address":"5673 Smith Rd","city":"Cleveland","state":"OH","postal_code":"44142","latitude":41.409087,"longitude":-81.803309,"stars":1.5,"review_count":5,"is_open":1,"attributes":null,"categories":"Automotive, Car Wash","hours":null}
{"business_id":"O4QbewwNOZ20gDaWK1hxtw","name":"Vegas Valley Air Duct","address":"4593 W Desert Inn Rd","city":"Las Vegas","state":"NV","postal_code":"89102","latitude":36.13,"longitude":-115.203179,"stars":2.5,"review_count":14,"is_open":1,"attributes":{"BusinessAcceptsCreditCards":"True"},"categories":"Heating & Air Conditioning\/HVAC, Home Cleaning, Professional Services, Office Cleaning, Air Duct Cleaning, Home Services, Chimney Sweeps, Local Services","hours":{"Monday":"0:0-0:0","Tuesday":"0:0-0:0","Wednesday":"0:0-0:0","Thursday":"0:0-0:0","Friday":"0:0-0:0","Saturday":"0:0-0:0","Sunday":"0:0-0:0"}}
{"business_id":"G_05ZI4Vpl4bxjjZR11jEQ","name":"Jardin Botanique de Montréal","address":"4101 Rue Sherbrooke E","city":"Montréal","state":"QC","postal_code":"H1X 2B2","latitude":45.5603345562,"longitude":-73.5612237261,"stars":4.5,"review_count":207,"is_open":1,"attributes":{"BikeParking":"True","GoodForKids":"True","BusinessParking":"{'garage': False, 'street': False, 'validated': False, 'lot': True, 'valet': False}"},"categories":"Arts & Entertainment, Botanical Gardens, Parks, Active Life","hours":{"Tuesday":"9:0-17:0","Wednesday":"9:0-17:0","Thursday":"9:0-17:0","Friday":"9:0-17:0","Saturday":"9:0-17:0","Sunday":"9:0-17:0"}}
{"business_id":"LEOvXK3lMEfjnex3CPvrng","name":"Albinas Italian American Bakery","address":"3035 E Tropicana Ave","city":"Las Vegas","state":"NV","postal_code":"89121","latitude":36.0992176,"longitude":-115.1096599,"stars":4.5,"review_count":11,"is_open":0,"attributes":{"RestaurantsPriceRange2":"2","BusinessParking":"{'garage': False, 'street': False, 'validated': False, 'lot': True, 'valet': False}","BusinessAcceptsCreditCards":"False"},"categories":"Food, Bakeries, Restaurants","hours":null}
{"business_id":"G7sVtpD6aqpuUB4F3LEG_w","name":"Hoche Café","address":"4299 rue Ontario Est","city":"Montréal","state":"QC","postal_code":"H1V 1K4","latitude":45.5524867983,"longitude":-73.5399850964,"stars":4.0,"review_count":65,"is_open":1,"attributes":{"Caters":"False","HasTV":"False","BikeParking":"True","Alcohol":"u'none'","RestaurantsDelivery":"False","Ambience":"{'romantic': False, 'intimate': False, 'classy': False, 'hipster': False, 'divey': False, 'touristy': False, 'trendy': False, 'upscale': False, 'casual': True}","OutdoorSeating":"False","RestaurantsPriceRange2":"1","RestaurantsAttire":"u'casual'","NoiseLevel":"'average'","RestaurantsTakeOut":"True","WiFi":"u'free'","RestaurantsGoodForGroups":"True","BusinessParking":"{'garage': False, 'street': True, 'validated': False, 'lot': False, 'valet': False}","RestaurantsReservations":"True","GoodForKids":"True","GoodForMeal":"{'dessert': False, 'latenight': False, 'lunch': True, 'dinner': False, 'brunch': True, 'breakfast': True}"},"categories":"Breakfast & Brunch, Food, Restaurants, Coffee & Tea","hours":{"Monday":"7:0-19:0","Tuesday":"7:0-19:0","Wednesday":"7:0-19:0","Thursday":"7:0-19:0","Friday":"6:45-19:0","Saturday":"8:0-19:0","Sunday":"7:30-18:30"}}
{"business_id":"fin8bCrfZ7aCB1pGesvDmw","name":"Theodore 1922","address":"374 Bloor Street W","city":"Toronto","state":"ON","postal_code":"M5S 1X2","latitude":43.6662014,"longitude":-79.4060876,"stars":4.5,"review_count":8,"is_open":1,"attributes":{"BusinessParking":"{'garage': False, 'street': True, 'validated': False, 'lot': False, 'valet': False}","BikeParking":"True","RestaurantsPriceRange2":"3"},"categories":"Shopping, Fashion, Men's Clothing, Jewelry, Accessories, Bridal","hours":{"Tuesday":"12:0-19:0","Wednesday":"12:0-19:0","Thursday":"12:0-20:0","Friday":"12:0-19:0","Saturday":"10:0-18:0","Sunday":"12:0-17:0"}}
{"business_id":"jP5l-EWJcMYUiv1UoQssAg","name":"Kind Exchange","address":"339 Roncesvalles Avenue","city":"Toronto","state":"ON","postal_code":"M6R 2M8","latitude":43.6493922,"longitude":-79.4500638,"stars":2.5,"review_count":3,"is_open":0,"attributes":{"RestaurantsPriceRange2":"1"},"categories":"Fashion, Shopping, Used, Vintage & Consignment","hours":{"Monday":"11:0-19:0","Tuesday":"11:0-19:0","Wednesday":"11:0-20:0","Thursday":"11:0-20:0","Friday":"11:0-20:0","Saturday":"11:0-20:0","Sunday":"12:0-18:0"}}
{"business_id":"zfOum9_rEhaLAqoAV3nYaQ","name":"Naya Mediterranean Cuisine","address":"8877 N Scottsdale Rd, Ste 402","city":"Scottsdale","state":"AZ","postal_code":"85253","latitude":33.5659638976,"longitude":-111.9250339642,"stars":4.0,"review_count":97,"is_open":0,"attributes":{"Music":"{'dj': False}","Ambience":"{'romantic': False, 'intimate': False, 'classy': False, 'hipster': False, 'divey': False, 'touristy': False, 'trendy': True, 'upscale': False, 'casual': False}","Caters":"True","NoiseLevel":"u'average'","Smoking":"u'no'","BikeParking":"True","GoodForKids":"True","WheelchairAccessible":"True","RestaurantsReservations":"True","GoodForDancing":"False","CoatCheck":"False","BusinessParking":"{'garage': False, 'street': False, 'validated': False, 'lot': True, 'valet': False}","BusinessAcceptsCreditCards":"True","RestaurantsDelivery":"False","RestaurantsGoodForGroups":"True","HasTV":"True","RestaurantsTableService":"True","RestaurantsAttire":"'casual'","WiFi":"'no'","Alcohol":"u'full_bar'","HappyHour":"True","OutdoorSeating":"True","BestNights":"{'monday': False, 'tuesday': False, 'friday': True, 'wednesday': False, 'thursday': False, 'sunday': True, 'saturday': True}","RestaurantsPriceRange2":"2","GoodForMeal":"{'dessert': False, 'latenight': False, 'lunch': False, 'dinner': True, 'breakfast': False, 'brunch': False}","RestaurantsTakeOut":"True"},"categories":"Specialty Food, Food, Bars, Italian, Nightlife, Ethnic Food, Restaurants, Cocktail Bars, Mediterranean","hours":{"Monday":"11:0-21:0","Tuesday":"11:0-21:0","Wednesday":"11:0-21:0","Thursday":"11:0-21:0","Friday":"11:0-22:0","Saturday":"11:0-22:0","Sunday":"11:0-21:0"}}
{"business_id":"cXBB07Kb2TcAuzJTVo9tZw","name":"Sunset Grill","address":"17205 Leslie St","city":"Newmarket","state":"ON","postal_code":"L3Y 8E4","latitude":44.0587246395,"longitude":-79.4296261825,"stars":3.0,"review_count":9,"is_open":1,"attributes":{"OutdoorSeating":"False","WiFi":"'free'","NoiseLevel":"u'very_loud'","Caters":"False","GoodForMeal":"{'dessert': False, 'latenight': False, 'lunch': False, 'dinner': False, 'brunch': False, 'breakfast': True}","HasTV":"False","Ambience":"{'romantic': False, 'intimate': False, 'classy': False, 'hipster': False, 'divey': False, 'touristy': False, 'trendy': False, 'upscale': False, 'casual': True}","RestaurantsReservations":"False","BikeParking":"True","RestaurantsAttire":"'casual'","RestaurantsGoodForGroups":"True","BusinessParking":"{'garage': False, 'street': False, 'validated': False, 'lot': False, 'valet': False}","RestaurantsPriceRange2":"2","Alcohol":"'none'","RestaurantsDelivery":"False","GoodForKids":"True","RestaurantsTakeOut":"True"},"categories":"Breakfast & Brunch, Restaurants, Canadian (New), Diners","hours":{"Monday":"7:0-15:0","Tuesday":"7:0-15:0","Wednesday":"7:0-15:0","Thursday":"7:0-15:0","Friday":"7:0-15:0","Saturday":"7:0-15:0","Sunday":"7:0-15:0"}}
{"business_id":"yd6pLLCKrrQvV_sV37YLrQ","name":"Hickory Grove Animal Hospital","address":"5450 N Sharon Amity Rd","city":"Charlotte","state":"NC","postal_code":"28215","latitude":35.2310294,"longitude":-80.7403666,"stars":4.5,"review_count":7,"is_open":1,"attributes":null,"categories":"Pet Services, Pet Groomers, Pet Sitting, Pets, Veterinarians, Pet Boarding","hours":{"Monday":"7:30-18:0","Tuesday":"7:30-18:0","Wednesday":"7:30-18:0","Thursday":"7:30-18:0","Friday":"7:30-18:0","Saturday":"8:0-12:0"}}
{"business_id":"WsdmzI2giWHcRN2plprxIg","name":"Aliante Nature Discovery Park","address":"2627 Nature Park D","city":"North Las Vegas","state":"NV","postal_code":"89084","latitude":36.2874222726,"longitude":-115.1766943656,"stars":3.5,"review_count":79,"is_open":1,"attributes":{"GoodForKids":"True","BikeParking":"True","BusinessParking":"{'garage': False, 'street': True, 'validated': False, 'lot': False, 'valet': False}"},"categories":"Parks, Active Life, Playgrounds","hours":null}
{"business_id":"0WAL6O1YvcJbeDRYeRm34w","name":"The Cove Trattoria","address":"7001 N Scottsdale Rd, Ste 184","city":"Paradise Valley","state":"AZ","postal_code":"85253","latitude":33.5394631012,"longitude":-111.924161911,"stars":4.0,"review_count":170,"is_open":0,"attributes":{"HasTV":"True","RestaurantsTakeOut":"True","OutdoorSeating":"True","RestaurantsGoodForGroups":"True","BusinessAcceptsCreditCards":"True","GoodForKids":"True","WiFi":"u'no'","RestaurantsPriceRange2":"2","Ambience":"{'romantic': False, 'intimate': False, 'touristy': False, 'hipster': False, 'divey': False, 'classy': False, 'trendy': False, 'upscale': False, 'casual': True}","RestaurantsDelivery":"False","Caters":"True","NoiseLevel":"u'average'","BusinessParking":"{'garage': False, 'street': False, 'validated': False, 'lot': True, 'valet': False}","RestaurantsAttire":"u'casual'","RestaurantsReservations":"True","Alcohol":"u'full_bar'","BikeParking":"True"},"categories":"Pizza, Restaurants, Italian","hours":{"Monday":"11:0-21:0","Tuesday":"11:0-21:0","Wednesday":"11:0-21:0","Thursday":"11:0-21:0","Friday":"11:0-21:30","Saturday":"16:0-21:30","Sunday":"17:0-21:0"}}
{"business_id":"hwwSII35ZAmhl3pTDhUTRQ","name":"Gap Outlet","address":"7400 Las Vegas Blvd S","city":"Las Vegas","state":"NV","postal_code":"89123","latitude":36.054594,"longitude":-115.16955,"stars":2.5,"review_count":12,"is_open":1,"attributes":{"BusinessAcceptsCreditCards":"True","BusinessParking":"{'garage': False, 'street': False, 'validated': False, 'lot': False, 'valet': False}","BikeParking":"True","RestaurantsPriceRange2":"2"},"categories":"Women's Clothing, Shopping, Men's Clothing, Outlet Stores, Fashion","hours":null}
{"business_id":"-pKhASvKFolihdipQfQXyA","name":"Rally's","address":"711 Cleveland Street","city":"Elyria","state":"OH","postal_code":"44035","latitude":41.3771708,"longitude":-82.0770363,"stars":4.0,"review_count":5,"is_open":1,"attributes":{"RestaurantsAttire":"'casual'","Ambience":"{'touristy': False, 'hipster': False, 'romantic': False, 'divey': False, 'intimate': False, 'trendy': False, 'upscale': False, 'classy': False, 'casual': False}","RestaurantsReservations":"False","WiFi":"'no'","RestaurantsGoodForGroups":"False","RestaurantsPriceRange2":"1","BusinessAcceptsCreditCards":"True","RestaurantsDelivery":"False","GoodForKids":"False","OutdoorSeating":"True","RestaurantsTakeOut":"True"},"categories":"Burgers, Fast Food, Restaurants","hours":{"Monday":"10:0-1:0","Tuesday":"10:0-1:0","Wednesday":"10:0-1:0","Thursday":"10:0-1:0","Friday":"10:0-2:0","Saturday":"10:0-2:0","Sunday":"10:0-1:0"}}
{"business_id":"yKpdzrqe_qIbu9dB6bj9Gg","name":"PGA Tour Grill","address":"5757 Wayne Newton Blvd","city":"Las Vegas","state":"NV","postal_code":"89119","latitude":36.0835550898,"longitude":-115.1521726325,"stars":2.5,"review_count":80,"is_open":1,"attributes":{"Ambience":"{'touristy': False, 'hipster': False, 'romantic': False, 'divey': False, 'intimate': False, 'trendy': False, 'upscale': False, 'classy': False, 'casual': True}","GoodForKids":"False","BikeParking":"False","RestaurantsDelivery":"False","RestaurantsGoodForGroups":"True","RestaurantsTakeOut":"True","OutdoorSeating":"True","RestaurantsAttire":"'casual'","GoodForMeal":"{'dessert': False, 'latenight': False, 'lunch': False, 'dinner': False, 'brunch': False, 'breakfast': False}","HasTV":"True","RestaurantsReservations":"False","BusinessParking":"{'garage': False, 'street': False, 'validated': False, 'lot': False, 'valet': False}","RestaurantsPriceRange2":"2","BusinessAcceptsCreditCards":"True","HappyHour":"True","WiFi":"'free'","RestaurantsTableService":"True","GoodForDancing":"False"},"categories":"American (Traditional), Restaurants, Bars, Nightlife","hours":null}
{"business_id":"HxUD_4GpOInD-mXIppZiZA","name":"NutriShop","address":"101 E. Southern Ave.","city":"Tempe","state":"AZ","postal_code":"85281","latitude":33.3918256,"longitude":-111.9374633,"stars":5.0,"review_count":23,"is_open":1,"attributes":{"BusinessAcceptsCreditCards":"True","BusinessParking":"{'garage': False, 'street': True, 'validated': False, 'lot': True, 'valet': False}","WheelchairAccessible":"True","RestaurantsPriceRange2":"2","BikeParking":"True","DogsAllowed":"True","RestaurantsTakeOut":"False","ByAppointmentOnly":"False"},"categories":"Vitamins & Supplements, Shopping, Health Markets, Food, Weight Loss Centers, Specialty Food, Health & Medical","hours":{"Monday":"0:0-0:0","Tuesday":"10:0-20:0","Wednesday":"10:0-17:0","Thursday":"10:0-20:0","Friday":"10:0-19:0","Saturday":"10:0-19:0","Sunday":"10:0-18:0"}}
{"business_id":"XuVXu2OgjR79vcJUyP1KaQ","name":"South Hills Movers","address":"3132 Industrial Blvd","city":"Bethel Park","state":"PA","postal_code":"15102","latitude":40.3251977,"longitude":-80.0464194,"stars":3.0,"review_count":20,"is_open":1,"attributes":{"ByAppointmentOnly":"False","BusinessAcceptsCreditCards":"True"},"categories":"Movers, Home Services","hours":{"Monday":"8:0-17:0","Tuesday":"8:0-17:0","Wednesday":"8:0-17:0","Thursday":"8:0-17:0","Friday":"8:0-17:0"}}
{"business_id":"QRHeEcLrZBocsIV_tntIZA","name":"Berkshire Hathaway HomeServices Nevada Properties","address":"3185 St Rose Pkwy, Ste 100","city":"Henderson","state":"NV","postal_code":"89052","latitude":35.997607,"longitude":-115.12321,"stars":4.0,"review_count":19,"is_open":1,"attributes":{"ByAppointmentOnly":"True","BusinessAcceptsCreditCards":"True"},"categories":"Real Estate Services, Real Estate, Real Estate Agents, Home Services","hours":{"Monday":"8:0-17:0","Tuesday":"8:0-17:0","Wednesday":"8:0-17:0","Thursday":"8:0-17:0","Friday":"8:0-17:0"}}
{"business_id":"kKTXiGVLEVpPA7r2R6baVw","name":"Uncle Joe's Bar & Grill","address":"6211 W 130th St","city":"Parma Heights","state":"OH","postal_code":"44130","latitude":41.394558,"longitude":-81.783869,"stars":4.0,"review_count":11,"is_open":1,"attributes":{"RestaurantsGoodForGroups":"True","GoodForKids":"False","RestaurantsAttire":"'casual'","OutdoorSeating":"False","Ambience":"{'touristy': False, 'hipster': False, 'romantic': False, 'divey': False, 'intimate': False, 'trendy': False, 'upscale': False, 'classy': False, 'casual': False}","RestaurantsDelivery":"False","BusinessParking":"{'garage': False, 'street': False, 'validated': False, 'lot': True, 'valet': False}","Alcohol":"u'full_bar'","BusinessAcceptsCreditCards":"True","RestaurantsTakeOut":"True","RestaurantsReservations":"False","NoiseLevel":"u'loud'","RestaurantsPriceRange2":"1","GoodForMeal":"{'dessert': False, 'latenight': False, 'lunch': False, 'dinner': False, 'brunch': False, 'breakfast': False}","WiFi":"u'free'","HasTV":"True"},"categories":"Beer Bar, Beer, Wine & Spirits, Restaurants, American (New), Nightlife, Bars, Food","hours":{"Monday":"14:0-2:30","Tuesday":"14:0-2:30","Wednesday":"14:0-2:30","Thursday":"14:0-2:30","Friday":"14:0-2:30","Saturday":"14:0-2:30","Sunday":"12:0-2:30"}}
{"business_id":"8CCOH5A-ZNTgeK9rUOWejQ","name":"Volkwein's Music","address":"138 Industry Dr","city":"Pittsburgh","state":"PA","postal_code":"15275","latitude":40.4598851,"longitude":-80.2011707,"stars":5.0,"review_count":4,"is_open":1,"attributes":{"BusinessAcceptsCreditCards":"True","BusinessParking":"{'garage': False, 'street': False, 'validated': False, 'lot': True, 'valet': False}","RestaurantsPriceRange2":"2","BikeParking":"False"},"categories":"Shopping, Musical Instruments & Teachers","hours":{"Tuesday":"8:30-17:0","Wednesday":"8:30-17:0","Thursday":"8:30-17:0","Friday":"10:30-17:0","Saturday":"8:30-17:0"}}
{"business_id":"bbMYlQK4FxWh8mzZ2-2R-A","name":"The Vitamin Shoppe","address":"7708 W Bell Rd","city":"Glendale","state":"AZ","postal_code":"85308","latitude":33.6387943,"longitude":-112.225222,"stars":4.0,"review_count":8,"is_open":1,"attributes":{"BusinessAcceptsCreditCards":"True","BusinessParking":"{'garage': False, 'street': False, 'validated': False, 'lot': False, 'valet': False}","RestaurantsPriceRange2":"2","BikeParking":"True"},"categories":"Shopping, Drugstores, Vitamins & Supplements","hours":null}
{"business_id":"q-DeyxfDo3AFjmghv5Gm1g","name":"Shalom India","address":"7700 Bathurst Street, Unit 12","city":"Vaughan","state":"ON","postal_code":"L4J 7Y3","latitude":43.8097134,"longitude":-79.4515772,"stars":3.5,"review_count":3,"is_open":1,"attributes":null,"categories":"Restaurants, Indian, Kosher","hours":{"Monday":"11:0-20:0","Tuesday":"11:0-20:0","Wednesday":"11:0-20:0","Thursday":"11:0-20:0","Friday":"11:0-15:0","Sunday":"11:0-20:0"}}
